{
  "locations": [
    {
      "id": "1",
      "name": "Sava's",
      "location": {
        "lat": 42.27985695741548,
        "lng": -83.74116609607758
      }
    },
    {
      "id": "2",
      "name": "Frita Batidos",
      "location": {
        "lat": 42.28079084122558,
        "lng": -83.74947390622958
      }
    },
    {
      "id": "3",
      "name": "Joe's Pizza",
      "location": {
        "lat": 42.275275685846324,
        "lng": -83.73545554111642
      }
    },
    {
      "id": "4",
      "name": "The Jagged Fork",
      "location": {
        "lat": 42.27744767031562,
        "lng": -83.74892878447943
      }
    },
    {
      "id": "5",
      "name": "Chapala",
      "location": {
        "lat": 42.28296246748778,
        "lng": -83.74865194400485
      }
    },
    {
      "id": "6",
      "name": "Zingerman's",
      "location": {
        "lat": 42.28471392842702,
        "lng": -83.74506057284091
      }
    },
    {
      "id": "7",
      "name": "Jolly Pumpkin",
      "location": {
        "lat": 42.2791663171986,
        "lng": -83.74846180167725
      }
    },
    {
      "id": "8",
      "name": "Tomukun",
      "location": {
        "lat": 42.27954694123521,
        "lng": -83.74271985934962
      }
    },
    {
      "id": "9",
      "name": "Palio",
      "location": {
        "lat": 42.278323545999456,
        "lng": -83.74850245934967
      }
    },
    {
      "id": "10",
      "name": "Of Rice & Men",
      "location": {
        "lat": 42.27901799052154,
        "lng": -83.7488192627282
      }
    }
  ]
}
